[
 {
   "StoreName": "1000 Hills Spar",
   "StoreType": "Spar",
   "Address": "86 Old Main Rd, Bothas Hill, Outer West Durban, 3660",
   "Longitude": "-29.752778",
   "Latitude": 30.7403891
 },
 {
   "StoreName": "1000 Hills Tops",
   "StoreType": "Spar",
   "Address": "86 Old Main Rd, Bothas Hill, Outer West Durban, 3660",
   "Longitude": "-29.75180603",
   "Latitude": 30.74244604
 },
 {
   "StoreName": "Abaqulusi Spar",
   "StoreType": "Spar",
   "Address": "President St, Vryheid, 3100",
   "Longitude": "-27.7700144",
   "Latitude": 30.788808
 },
 {
   "StoreName": "Abaqulusi Tops",
   "StoreType": "Spar",
   "Address": "166 Mark St, Vryheid, 3100",
   "Longitude": "-27.76864196",
   "Latitude": 30.79067636
 },
 {
   "StoreName": "Acornhoek Superspar",
   "StoreType": "Spar",
   "Address": "Main Street, Acornhoek-A, Acornhoek, 1360",
   "Longitude": "-24.6020457",
   "Latitude": 31.043968
 },
 {
   "StoreName": "Acornhoek Tops",
   "StoreType": "Spar",
   "Address": "Mall, R40, Acornhoek, 1360",
   "Longitude": "-24.88080806",
   "Latitude": 31.10069523
 },
 {
   "StoreName": "Aliwal North Spar",
   "StoreType": "Spar",
   "Address": "Grey St, Aliwal North, 9750",
   "Longitude": "-30.69026331",
   "Latitude": 26.70270191
 },
 {
   "StoreName": "Amahlati Spar",
   "StoreType": "Spar",
   "Address": "22 Hill St, Stutterheim, 4930",
   "Longitude": "-32.569788",
   "Latitude": 27.4259663
 },
 {
   "StoreName": "Amahlati Tops",
   "StoreType": "Spar",
   "Address": "22 Hill St, Stutterheim, 4930",
   "Longitude": "-32.569788",
   "Latitude": 27.4259663
 },
 {
   "StoreName": "Ashmel Superspar",
   "StoreType": "Spar",
   "Address": "1 Glaston St, Berea, East London, 5241",
   "Longitude": "-32.99140678",
   "Latitude": 27.91081721
 },
 {
   "StoreName": "Ashmel Tops",
   "StoreType": "Spar",
   "Address": "1 Glaston St, Berea, East London, 5241",
   "Longitude": "-32.99140678",
   "Latitude": 27.91081721
 },
 {
   "StoreName": "Bergville Spar",
   "StoreType": "Spar",
   "Address": "West St, Bergville, 3350",
   "Longitude": "-28.73145059",
   "Latitude": 29.3529855
 },
 {
   "StoreName": "Bergville Tops",
   "StoreType": "Spar",
   "Address": "18 South St, Bergville, 3350",
   "Longitude": "-28.73130935",
   "Latitude": 29.35256824
 },
 {
   "StoreName": "Berlin Spar",
   "StoreType": "Spar",
   "Address": "21 Legion St, Berlin General, Ntabozuko, 5660",
   "Longitude": "-32.8841598",
   "Latitude": 27.580551
 },
 {
   "StoreName": "Berlin Tops",
   "StoreType": "Spar",
   "Address": "21 Legion St, Berlin General, Ntabozuko, 5660",
   "Longitude": "-32.8841598",
   "Latitude": 27.580551
 },
 {
   "StoreName": "Bluewater Bay SuperSpar",
   "StoreType": "Spar",
   "Address": "1 Hillcrest Dr N2 City Shopping Centre, Bluewater Bay, Gqeberha, 6212",
   "Longitude": "-33.84928153",
   "Latitude": 25.63152446
 },
 {
   "StoreName": "BMS Beach Road",
   "StoreType": "BMS",
   "Address": "6 Beach Rd, Ocean View, Durban, 4052",
   "Longitude": "-29.90947919",
   "Latitude": 31.0203265
 },
 {
   "StoreName": "BMS Berea",
   "StoreType": "BMS",
   "Address": "337 King Dinuzulu Rd (South ), Bulwer, Berea, 4083",
   "Longitude": "-29.85445423",
   "Latitude": 31.00015892
 },
 {
   "StoreName": "BMS Chatsworth",
   "StoreType": "BMS",
   "Address": "1 Tranquil St, Westcliff, Chatsworth, 4092",
   "Longitude": "-29.91594751",
   "Latitude": 30.88430374
 },
 {
   "StoreName": "BMS Durban North",
   "StoreType": "BMS",
   "Address": "1399 Chris Hani Road, Durban North, Durban, 4051",
   "Longitude": "-29.7667321",
   "Latitude": 31.02631111
 },
 {
   "StoreName": "BMS Empangeni",
   "StoreType": "BMS",
   "Address": "44 Tanner Rd, Mpangele, Empangeni, 3880",
   "Longitude": "-28.77055606",
   "Latitude": 31.90472592
 },
 {
   "StoreName": "BMS Henwood Drive",
   "StoreType": "BMS",
   "Address": "25 Henwood Road New Germany, Pinetown, Durban, 4001",
   "Longitude": "-29.81162776",
   "Latitude": 30.87050843
 },
 {
   "StoreName": "BMS Hillcrest",
   "StoreType": "BMS",
   "Address": "9 Inanda Rd, Hillcrest, Durban, 3610",
   "Longitude": "-29.77788579",
   "Latitude": 30.76586137
 },
 {
   "StoreName": "BMS Housewives",
   "StoreType": "BMS",
   "Address": "Market Rd, The Meadows, Pietermaritzburg, 3201",
   "Longitude": "-29.63980117",
   "Latitude": 30.4122809
 },
 {
   "StoreName": "BMS Kingsburgh",
   "StoreType": "BMS",
   "Address": "16 Winklespruit Rd, Winklespruit, Kingsburgh, 4126",
   "Longitude": "-30.09553743",
   "Latitude": 30.85684562
 },
 {
   "StoreName": "BMS Queensburgh",
   "StoreType": "BMS",
   "Address": "Coronation Walk, 15 Coronation Rd, Malvern, Durban, 4093",
   "Longitude": "-29.88093932",
   "Latitude": 30.9193883
 },
 {
   "StoreName": "BMS RICHARDS BAY",
   "StoreType": "BMS",
   "Address": "132 Alumina Allee St, Alton, Richards Bay, 3900",
   "Longitude": "-28.73553575",
   "Latitude": 32.037204
 },
 {
   "StoreName": "BMS Rosedale",
   "StoreType": "BMS",
   "Address": "20 Rosedale Rd, Mountain Rise, Pietermaritzburg, 3201",
   "Longitude": "-29.58031202",
   "Latitude": 30.40206369
 },
 {
   "StoreName": "BMS Suffert Street",
   "StoreType": "BMS",
   "Address": "40, 42 Suffert St, Pinetown, Durban, 3610",
   "Longitude": "-29.81851464",
   "Latitude": 30.87721267
 },
 {
   "StoreName": "BMS Value Center",
   "StoreType": "BMS",
   "Address": "111 Intersite Ave, Springfield Park, Durban, 4001",
   "Longitude": "-29.80906122",
   "Latitude": 30.98530335
 },
 {
   "StoreName": "BMS Victoria",
   "StoreType": "BMS",
   "Address": "102 Victoria Rd, Pietermaritzburg, 3201",
   "Longitude": "-29.60113603",
   "Latitude": 30.3672608
 },
 {
   "StoreName": "Brays Spar",
   "StoreType": "Spar",
   "Address": "100 Main Rd, Keimoes, 8860",
   "Longitude": "-28.70749164",
   "Latitude": 20.97137317
 },
 {
   "StoreName": "Bridge City Superspar",
   "StoreType": "Spar",
   "Address": "Nogwaja Street Bridge City shopping centre, Bridge city Boulevard, Durban, 4071",
   "Longitude": "-29.726354",
   "Latitude": 30.9843223
 },
 {
   "StoreName": "Bridge City Tops",
   "StoreType": "Spar",
   "Address": "Nogwaja Street Bridge City shopping centre, Bridge city Boulevard, Durban, 4071",
   "Longitude": "-29.726354",
   "Latitude": 30.9843223
 },
 {
   "StoreName": "Brighton Spar",
   "StoreType": "Spar",
   "Address": "Ferguson Road New Brighton,Siya, Kulati Rd, Gqeberha, 6070",
   "Longitude": "-33.9073976",
   "Latitude": 25.5958634
 },
 {
   "StoreName": "Butterworth Kwikspar",
   "StoreType": "Spar",
   "Address": "21 Umtata St, Butterworth, 4960",
   "Longitude": "-32.3330504",
   "Latitude": 28.1412318
 },
 {
   "StoreName": "Butterworth Superspar",
   "StoreType": "Spar",
   "Address": "Fuller St, Carnage Streets, Butterworth, 4960",
   "Longitude": "-32.3302646",
   "Latitude": 28.1413246
 },
 {
   "StoreName": "Butterworth Tops",
   "StoreType": "Spar",
   "Address": "Cnr. Fuller &, Carnegie St, Butterworth, 4960",
   "Longitude": "-32.33211865",
   "Latitude": 28.14432974
 },
 {
   "StoreName": "Cacadu Spar",
   "StoreType": "Spar",
   "Address": "23 Indwe St, Lady Frere, 5410",
   "Longitude": "-31.70117725",
   "Latitude": 27.22992886
 },
 {
   "StoreName": "Cala Spar",
   "StoreType": "Spar",
   "Address": "Tsitsa St, Cala, 5256",
   "Longitude": "-31.52450517",
   "Latitude": 27.69445174
 },
 {
   "StoreName": "Cambridge Spar",
   "StoreType": "Spar",
   "Address": "18 Garcia St, Cambridge, East London, 5256",
   "Longitude": "-32.9803504",
   "Latitude": 27.8915968
 },
 {
   "StoreName": "Cambridge West Kwikspar",
   "StoreType": "Spar",
   "Address": "68 Griffin Rd, Cambridge West, East London, 5256",
   "Longitude": "-32.9754865",
   "Latitude": 27.8680057
 },
 {
   "StoreName": "Centani Spar",
   "StoreType": "Spar",
   "Address": "Bell St, Kentani, 6005",
   "Longitude": "-32.50635106",
   "Latitude": 28.31821922
 },
 {
   "StoreName": "Centani Tops",
   "StoreType": "Spar",
   "Address": "Bell St, Kentani, 4980",
   "Longitude": "-32.50624188",
   "Latitude": 28.31864837
 },
 {
   "StoreName": "Charlesville Tops",
   "StoreType": "Spar",
   "Address": "Charlesville, Cape Town, 7490",
   "Longitude": "-33.96167415",
   "Latitude": 18.5683374
 },
 {
   "StoreName": "Circle Spar Elliotdale",
   "StoreType": "Spar",
   "Address": "84 Main Rd, Elliotdale, 5100",
   "Longitude": "-31.96802616",
   "Latitude": 28.68310058
 },
 {
   "StoreName": "Circle Spar Mthatha",
   "StoreType": "Spar",
   "Address": "Cnr. York & Elliot St, Mthatha, 5100",
   "Longitude": "-31.5855141",
   "Latitude": 28.78940043
 },
 {
   "StoreName": "Cofimvaba Superspar",
   "StoreType": "Spar",
   "Address": "Main Street Bellaire Avenue, Cofimvaba, 5200",
   "Longitude": "-32.0015993",
   "Latitude": 27.5799376
 },
 {
   "StoreName": "Crawford Tops",
   "StoreType": "Spar",
   "Address": "2 Taronga Rd, Crawford, Cape Town, 7780",
   "Longitude": "-33.9731423",
   "Latitude": 18.50294995
 },
 {
   "StoreName": "Dagbreek Spar",
   "StoreType": "Spar",
   "Address": "8 Main Street, Kirkwood, 6120",
   "Longitude": "-33.39961463",
   "Latitude": 25.44086748
 },
 {
   "StoreName": "Dagbreek Tops",
   "StoreType": "Spar",
   "Address": "15 Main Street, Kirkwood, 6120",
   "Longitude": "-33.40020302",
   "Latitude": 25.44095227
 },
 {
   "StoreName": "Daily Spar",
   "StoreType": "Spar",
   "Address": "",
   "Longitude": "",
   "Latitude": null
 },
 {
   "StoreName": "Daily Tops",
   "StoreType": "Spar",
   "Address": "Queens Rd, Qonce, 5601",
   "Longitude": "-32.87418797",
   "Latitude": 27.40370346
 },
 {
   "StoreName": "Daku Spar",
   "StoreType": "Spar",
   "Address": "Daku Roa 96 Daku Building, Daku Square Kwazakhele, 6065",
   "Longitude": "-33.8747426",
   "Latitude": 25.5801774
 },
 {
   "StoreName": "Debilee Spar",
   "StoreType": "Spar",
   "Address": "121 Jan Smuts Ave, Greenfields, East London, 5247",
   "Longitude": "-33.035262",
   "Latitude": 27.8522513
 },
 {
   "StoreName": "Debilee Tops",
   "StoreType": "Spar",
   "Address": "121 Jan Smuts Ave, Rosemount, East London, 5208",
   "Longitude": "-33.03445664",
   "Latitude": 27.85423881
 },
 {
   "StoreName": "Diphagane SaveMor",
   "StoreType": "Spar",
   "Address": "135, R579, Diphagane, 1085",
   "Longitude": "-24.6574895",
   "Latitude": 29.74483177
 },
 {
   "StoreName": "Durban Mega Spar",
   "StoreType": "Spar",
   "Address": "2 Soldiers Way, Durban Central, Durban, 4001",
   "Longitude": "-29.85491584",
   "Latitude": 31.02437367
 },
 {
   "StoreName": "Durban Mega Tops",
   "StoreType": "Spar",
   "Address": "Shop 1, Shopping Centre, 2 Soldiers Way, Durban Central, Durban, 4001",
   "Longitude": "-29.85557036",
   "Latitude": 31.02386537
 },
 {
   "StoreName": "Edendale Superspar",
   "StoreType": "Spar",
   "Address": "Kwamabulala Shopping Centre, Machibisa Rd, Edendale, Pietermaritzburg, 3217",
   "Longitude": "-29.6473105",
   "Latitude": 30.3214493
 },
 {
   "StoreName": "Edendale Tops",
   "StoreType": "Spar",
   "Address": "Kwamabulala Shopping Centre, Machibisa Rd, Edendale, Pietermaritzburg, 3217",
   "Longitude": "-29.64667359",
   "Latitude": 30.32310309
 },
 {
   "StoreName": "Eerste Rivier Superspar",
   "StoreType": "Spar",
   "Address": "City Centre Eerste River, Cnr of Van Riebeeck Road &, Forest Dr, Eerste River, Cape Town, 7100",
   "Longitude": "-34.0010959",
   "Latitude": 18.7241534
 },
 {
   "StoreName": "Eerste River Tops",
   "StoreType": "Spar",
   "Address": "Cnr Van Riebeeck Rd &, Forest Dr, Russel`s Rest, Cape Town, 7100",
   "Longitude": "-33.99998994",
   "Latitude": 18.72687632
 },
 {
   "StoreName": "East London Superspar",
   "StoreType": "Spar",
   "Address": "7-9 Park Gates Rd, Parkside, East London, 5209",
   "Longitude": "-33.01773001",
   "Latitude": 27.90157588
 },
 {
   "StoreName": "East London Tops 1",
   "StoreType": "Spar",
   "Address": "7-9 Park Gates Rd, East London Cbd, East London, 5200",
   "Longitude": "-33.0177294",
   "Latitude": 27.90153296
 },
 {
   "StoreName": "East London Tops 2",
   "StoreType": "Spar",
   "Address": "Gilwell Rd, East London Cbd, East London, 5209",
   "Longitude": "-33.01898872",
   "Latitude": 27.90313134
 },
 {
   "StoreName": "Elukwatini Spar",
   "StoreType": "Spar",
   "Address": "R541 Shop 19, Elukwatini Square, Nhlazatshe 6, Elukwatini, 1192",
   "Longitude": "-26.03961236",
   "Latitude": 30.79226115
 },
 {
   "StoreName": "Empangeni Superspar",
   "StoreType": "Spar",
   "Address": "66 Maxwell St, Empangeni Central, Empangeni, 3880",
   "Longitude": "-28.7444855",
   "Latitude": 31.8860798
 },
 {
   "StoreName": "Empangeni Tops",
   "StoreType": "Spar",
   "Address": "66 Maxwell St, Empangeni Central, Empangeni, 3880",
   "Longitude": "-28.74429441",
   "Latitude": 31.88837673
 },
 {
   "StoreName": "Engcobo Buildit",
   "StoreType": "Spar",
   "Address": "1 High St, Ngcobo, 5050",
   "Longitude": "-31.67543084",
   "Latitude": 28.00310567
 },
 {
   "StoreName": "Engcobo Spar",
   "StoreType": "Spar",
   "Address": "High St, Ngcobo, 5050",
   "Longitude": "-31.67669364",
   "Latitude": 27.99945238
 },
 {
   "StoreName": "Engcobo Tops 1",
   "StoreType": "Spar",
   "Address": "High St, Engcobo, 6005",
   "Longitude": "-31.67581496",
   "Latitude": 28.00256349
 },
 {
   "StoreName": "Engcobo Tops 2",
   "StoreType": "Spar",
   "Address": "Main Rd Erf 317, Engcobo, 5050",
   "Longitude": "-31.67647421",
   "Latitude": 27.99906614
 },
 {
   "StoreName": "Ephondweni Spar",
   "StoreType": "Spar",
   "Address": "D1834 Road Main Road Ephondweni, 4000",
   "Longitude": "-27.04019",
   "Latitude": 32.2699713
 },
 {
   "StoreName": "Ermelo Spar",
   "StoreType": "Spar",
   "Address": "2 Oosthuise St, Ermelo, 2351",
   "Longitude": "-26.51759824",
   "Latitude": 29.98760605
 },
 {
   "StoreName": "Ermelo Tops",
   "StoreType": "Spar",
   "Address": "2 Oosthuise St, Ermelo, 2351",
   "Longitude": "-26.51706952",
   "Latitude": 29.98761673
 },
 {
   "StoreName": "Esikhaweni Superspar",
   "StoreType": "Spar",
   "Address": "Mall, 1 Mdlebe Ntshona Rd, Esikhawini H, Richards Bay, 4490",
   "Longitude": "-28.87096496",
   "Latitude": 31.89992841
 },
 {
   "StoreName": "Esikhaweni Tops",
   "StoreType": "Spar",
   "Address": "Mdlebe Ntshona Rd, Esikhawini J, Richards Bay, 3887",
   "Longitude": "-28.87109167",
   "Latitude": 31.89972336
 },
 {
   "StoreName": "Gateway Superspar",
   "StoreType": "Spar",
   "Address": "Palm Boulevard LGI Gateway Shopping Centre, Umhlanga Ridge, Umhlanga, 4319",
   "Longitude": "-29.7259983",
   "Latitude": 31.0636988
 },
 {
   "StoreName": "Gateway Tops",
   "StoreType": "Spar",
   "Address": "Palm Blvd, Umhlanga Ridge, Umhlanga, 4319",
   "Longitude": "-29.72533379",
   "Latitude": 31.06587743
 },
 {
   "StoreName": "Gelvendale SuperSpar",
   "StoreType": "Spar",
   "Address": "Stanford Rd, Gelvandale, Gqeberha, 6005",
   "Longitude": "-33.91170374",
   "Latitude": 25.5593489
 },
 {
   "StoreName": "Georgious Spar",
   "StoreType": "Spar",
   "Address": "50 Campbell St, Fort Beaufort, 5720",
   "Longitude": "-32.7769217",
   "Latitude": 26.6299471
 },
 {
   "StoreName": "Georgious Tops",
   "StoreType": "Spar",
   "Address": "50 Campbell St, Fort Beaufort, 5720",
   "Longitude": "-32.77592459",
   "Latitude": 26.6322792
 },
 {
   "StoreName": "Ghandi Spar",
   "StoreType": "Spar",
   "Address": "Marshall Street, Eloff St, Johannesburg, 1500",
   "Longitude": "-26.2071781",
   "Latitude": 28.0419344
 },
 {
   "StoreName": "Ghandi Tops",
   "StoreType": "Spar",
   "Address": "Cnr Kerk & Kruger Street, Piet Retief, 2380",
   "Longitude": "-26.20143501",
   "Latitude": 28.04447812
 },
 {
   "StoreName": "Gonubie Superspar",
   "StoreType": "Spar",
   "Address": "85-87 Main Road 6 Mayhem Place, Gonubie, East London, 5256",
   "Longitude": "-32.9408405",
   "Latitude": 28.0213151
 },
 {
   "StoreName": "Gonubie Tops",
   "StoreType": "Spar",
   "Address": "85 Main Rd, Gonubie, East London, 5256",
   "Longitude": "-32.94073325",
   "Latitude": 28.02352323
 },
 {
   "StoreName": "Gugulethu Superspar",
   "StoreType": "Spar",
   "Address": "Ny 3 Ny 3 St Gugulethu Shopping Centre, Guguletu, Cape Town, 7750",
   "Longitude": "-33.98545547",
   "Latitude": 18.566217
 },
 {
   "StoreName": "Gugulethu Tops",
   "StoreType": "Spar",
   "Address": "Steve Biko Dr Gugulethu Shopping Centre, Guguletu, Cape Town, 7750",
   "Longitude": "-33.98526196",
   "Latitude": 18.56693898
 },
 {
   "StoreName": "Hammersdale Superspar",
   "StoreType": "Spar",
   "Address": "17156 Kunene Road Shop A, 29 Hammarsdale Junction, Durban, 3700",
   "Longitude": "-29.8020792",
   "Latitude": 30.6262858
 },
 {
   "StoreName": "Hammersdale Tops",
   "StoreType": "Spar",
   "Address": "17156 Kunene Rd Shop A, 29 Hammarsdale Junction, Mpumalanga, 3701",
   "Longitude": "-29.80183376",
   "Latitude": 30.62887701
 },
 {
   "StoreName": "Harding Superspar",
   "StoreType": "Spar",
   "Address": "11 Hawkins St, Harding, 4680",
   "Longitude": "-30.5766468",
   "Latitude": 29.878396
 },
 {
   "StoreName": "Harding Tops",
   "StoreType": "Spar",
   "Address": "11 Hawkins St, Harding, 4680",
   "Longitude": "-30.5766468",
   "Latitude": 29.878396
 },
 {
   "StoreName": "Heidelberg Spar",
   "StoreType": "Spar",
   "Address": "69 Voortrekker St, Heidelberg, Heidelberg - GP, 1441",
   "Longitude": "-26.50128095",
   "Latitude": 28.35981827
 },
 {
   "StoreName": "Heidelberg Tops",
   "StoreType": "Spar",
   "Address": "",
   "Longitude": "",
   "Latitude": null
 },
 {
   "StoreName": "Highway Superspar",
   "StoreType": "Spar",
   "Address": "Sandile Road, Mdantsane Unit 1, Mdantsane, 5219",
   "Longitude": "-32.9448995",
   "Latitude": 27.7617983
 },
 {
   "StoreName": "Highway Tops 2",
   "StoreType": "Spar",
   "Address": "Sandile Rd, Mdantsane Unit 2, Mdantsane, 5219",
   "Longitude": "-32.94175826",
   "Latitude": 27.75377033
 },
 {
   "StoreName": "Hlabisa Spar",
   "StoreType": "Spar",
   "Address": "R618, Hlabisa, 3937",
   "Longitude": "-28.14482614",
   "Latitude": 31.87528777
 },
 {
   "StoreName": "Hlabisa Tops",
   "StoreType": "Spar",
   "Address": "R618, Hlabisa, 4000",
   "Longitude": "-28.14459494",
   "Latitude": 31.87537032
 },
 {
   "StoreName": "Hluhluwe Superspar",
   "StoreType": "Spar",
   "Address": "Main Street Lot 15, Hluhluwe, 3960",
   "Longitude": "-28.0189018",
   "Latitude": 32.2671273
 },
 {
   "StoreName": "Hluhluwe Tops",
   "StoreType": "Spar",
   "Address": "R22 Lot 15, 4071",
   "Longitude": "-27.86888341",
   "Latitude": 32.36199447
 },
 {
   "StoreName": "Idutywa Spar",
   "StoreType": "Spar",
   "Address": " 148 Richardson Rd, Idutywa, 5000",
   "Longitude": "-32.0997174",
   "Latitude": 28.3023262
 },
 {
   "StoreName": "Idutywa Tops 1",
   "StoreType": "Spar",
   "Address": "147 Richardson Rd, Idutywa, 5000",
   "Longitude": "-32.09937208",
   "Latitude": 28.30456236
 },
 {
   "StoreName": "Idutywa Tops 2",
   "StoreType": "Spar",
   "Address": " 148 Richardson Rd, Idutywa, 5000",
   "Longitude": "-32.0997174",
   "Latitude": 28.3023262
 },
 {
   "StoreName": "Indlovu Superspar",
   "StoreType": "Spar",
   "Address": "Main Road Mpumalanga, Shop No 11, Lowveld Mall Blue Haze Shopping Centre, Hazyview, 1242",
   "Longitude": "-25.0479314",
   "Latitude": 31.1293783
 },
 {
   "StoreName": "Indlovu Tops",
   "StoreType": "Spar",
   "Address": "Main Road Blue Haze Shopping Centre, Hazyview, 1242",
   "Longitude": "-25.04309783",
   "Latitude": 31.13051222
 },
 {
   "StoreName": "Indwe Spar",
   "StoreType": "Spar",
   "Address": "37 Fletcher St, Indwe, 5445",
   "Longitude": "-31.46803803",
   "Latitude": 27.3389614
 },
 {
   "StoreName": "Ingwavuma tops",
   "StoreType": "Spar",
   "Address": "Main Road, Ingwavuma, 3968",
   "Longitude": "-27.13335492",
   "Latitude": 31.99593413
 },
 {
   "StoreName": "Ixopo Superspar",
   "StoreType": "Spar",
   "Address": "30 Margaret St, Ixopo, 3276",
   "Longitude": "-30.1555407",
   "Latitude": 30.0571589
 },
 {
   "StoreName": "Ixopo Tops",
   "StoreType": "Spar",
   "Address": "36 Margaret St, Ixopo, 3207",
   "Longitude": "-30.15294561",
   "Latitude": 30.05875917
 },
 {
   "StoreName": "Jeppe Kwikspar",
   "StoreType": "Spar",
   "Address": "157 Rahima Moosa St, Johannesburg, 2000",
   "Longitude": "-26.20136",
   "Latitude": 28.0399713
 },
 {
   "StoreName": "Jeppe Tops",
   "StoreType": "Spar",
   "Address": "157 Rahima Moosa St, Johannesburg, 2000",
   "Longitude": "-26.20136",
   "Latitude": 28.0399713
 },
 {
   "StoreName": "Jimmys SuperSpar",
   "StoreType": "Spar",
   "Address": "78 Sutherland St, Norwood, Mthatha, 5100",
   "Longitude": "-31.58704282",
   "Latitude": 28.78715827
 },
 {
   "StoreName": "Jozini Spar",
   "StoreType": "Spar",
   "Address": "Ithala Centre, 1 Nsinde Street Main Jozini Road, Jozini",
   "Longitude": "-27.4299659",
   "Latitude": 32.0674714
 },
 {
   "StoreName": "Jozini Tops",
   "StoreType": "Spar",
   "Address": "Main Rd Ithala Centre, Jozini, 3970",
   "Longitude": "-27.4296061",
   "Latitude": 32.06936922
 },
 {
   "StoreName": "Junction 14 Spar",
   "StoreType": "Spar",
   "Address": "",
   "Longitude": "",
   "Latitude": null
 },
 {
   "StoreName": "Khayelitsha Superspar",
   "StoreType": "Spar",
   "Address": "Road Shopping Centre, 1 Julius Tsolo Street, Khayelitsha, Cape Town, 7100",
   "Longitude": "-34.0484541",
   "Latitude": 18.6699968
 },
 {
   "StoreName": "Kings Spar",
   "StoreType": "Spar",
   "Address": "22 Kings Rd, New Germany, Pinetown, 3620",
   "Longitude": "-29.812438",
   "Latitude": 30.8548943
 },
 {
   "StoreName": "Kings Tops",
   "StoreType": "Spar",
   "Address": "22 Kings Rd Pine Walk Centre, New Germany, Pinetown, 3620",
   "Longitude": "-29.79762508",
   "Latitude": 30.85745341
 },
 {
   "StoreName": "Kosi Bay Superspar",
   "StoreType": "Spar",
   "Address": "Makprop Centre, Main Rd, Manguzi, 3973",
   "Longitude": "-26.9868325",
   "Latitude": 32.75608595
 },
 {
   "StoreName": "Kosi Bay Tops",
   "StoreType": "Spar",
   "Address": "Main Rd, Manguzi, 3973",
   "Longitude": "-26.98748299",
   "Latitude": 32.75652499
 },
 {
   "StoreName": "Kwa Fetting Hardware",
   "StoreType": "Spar",
   "Address": "",
   "Longitude": "",
   "Latitude": null
 },
 {
   "StoreName": "Kwa Fetting Spar",
   "StoreType": "Spar",
   "Address": "Main Road, Middeldrift, 5685",
   "Longitude": "-32.3360149",
   "Latitude": 28.16141028
 },
 {
   "StoreName": "Kwamashu Superspar",
   "StoreType": "Spar",
   "Address": "300 Malandela Road Kwa Mashu, Durban, 4360",
   "Longitude": "-29.7478778",
   "Latitude": 30.9722896
 },
 {
   "StoreName": "Kwamashu Tops",
   "StoreType": "Spar",
   "Address": "300 Malendela Rd, KwaMashu, 4360",
   "Longitude": "-29.74543555",
   "Latitude": 30.97551717
 },
 {
   "StoreName": "Kwanobuhle Spar",
   "StoreType": "Spar",
   "Address": "8 Hoyana St Kwa Nobuhle, Gqeberha, 6230",
   "Longitude": "-33.80626495",
   "Latitude": 25.39501536
 },
 {
   "StoreName": "Kwantu Superspar",
   "StoreType": "Spar",
   "Address": "Cnr Bridge & High Street, Alice, 5700",
   "Longitude": "-32.7866029",
   "Latitude": 26.8371509
 },
 {
   "StoreName": "Kwantu Tops",
   "StoreType": "Spar",
   "Address": "Thompson St, Alice, 5700",
   "Longitude": "-32.78524985",
   "Latitude": 26.83917535
 },
 {
   "StoreName": "KWT Superspar",
   "StoreType": "Spar",
   "Address": "36 Cathcart St, Qonce, 5601",
   "Longitude": "-32.87781874",
   "Latitude": 27.38674679
 },
 {
   "StoreName": "KWT Tops 1",
   "StoreType": "Spar",
   "Address": "9 Walker St, Qonce, 5601",
   "Longitude": "-32.87814251",
   "Latitude": 27.38773384
 },
 {
   "StoreName": "KWT Tops 2",
   "StoreType": "Spar",
   "Address": "Queens Rd, Qonce, 5601",
   "Longitude": "-32.87284891",
   "Latitude": 27.40350971
 },
 {
   "StoreName": "Ladysmith Superspar",
   "StoreType": "Spar",
   "Address": "Queen Street Corner of, Lyell St, Ladysmith, 3370",
   "Longitude": "-28.5606607",
   "Latitude": 29.7789602
 },
 {
   "StoreName": "Ladysmith Tops",
   "StoreType": "Spar",
   "Address": "Cnr Queen &, Lyell St, Ladysmith, 3370",
   "Longitude": "-28.5598543",
   "Latitude": 29.7830621
 },
 {
   "StoreName": "Lighthouse Spar",
   "StoreType": "Spar",
   "Address": "Moore St, Quigney, East London, 5256",
   "Longitude": "-33.012446",
   "Latitude": 27.9177282
 },
 {
   "StoreName": "Lusikisiki Spar",
   "StoreType": "Spar",
   "Address": "21 Main Street, Lusikisiki, 4820",
   "Longitude": "-31.3596312",
   "Latitude": 29.5706252
 },
 {
   "StoreName": "Lusikisiki Tops",
   "StoreType": "Spar",
   "Address": "28 Main St, Lusikisiki, 4820",
   "Longitude": "-31.35892808",
   "Latitude": 29.57252006
 },
 {
   "StoreName": "Maclear Spar",
   "StoreType": "Spar",
   "Address": "Van Riebeeck Street 8, Nqanqarhu, 5480",
   "Longitude": "-31.0696854",
   "Latitude": 28.3489728
 },
 {
   "StoreName": "Madadeni  Spar",
   "StoreType": "Spar",
   "Address": "Madadeni, Newcastle",
   "Longitude": "-27.7548141",
   "Latitude": 30.0454704
 },
 {
   "StoreName": "Madadeni Tops",
   "StoreType": "Spar",
   "Address": "Madadeni, Newcastle",
   "Longitude": "-27.7548141",
   "Latitude": 30.0454704
 },
 {
   "StoreName": "Madala Hardware",
   "StoreType": "Spar",
   "Address": "185 Main Street, Keiskammahoek, 5670",
   "Longitude": "-32.68176498",
   "Latitude": 27.15143048
 },
 {
   "StoreName": "Madalas SaveMor",
   "StoreType": "Spar",
   "Address": "185 Main St, Keiskammahoek, 4950",
   "Longitude": "-32.68188188",
   "Latitude": 27.15178361
 },
 {
   "StoreName": "Maluti Superspar",
   "StoreType": "Spar",
   "Address": "Mampoi Rd &, Motebang Rd, Phuthaditjhaba-A, Phuthaditjhaba, 9869",
   "Longitude": "-28.53452976",
   "Latitude": 28.80173187
 },
 {
   "StoreName": "Maluti Tops",
   "StoreType": "Spar",
   "Address": "Motebang Rd, Phuthaditjhaba-A, Phuthaditjhaba, 9869",
   "Longitude": "-28.53475377",
   "Latitude": 28.80174357
 },
 {
   "StoreName": "Mandela Park Spar",
   "StoreType": "Spar",
   "Address": "89 Govan Mbeki Rd, Mandela Park, Cape Town, 7784",
   "Longitude": "-34.04764648",
   "Latitude": 18.68811185
 },
 {
   "StoreName": "Mandini Spar",
   "StoreType": "Spar",
   "Address": "Centre, Vector Square, 1 Long St, Mandini, 4490",
   "Longitude": "-29.15406039",
   "Latitude": 31.41070141
 },
 {
   "StoreName": "Mandini Tops",
   "StoreType": "Spar",
   "Address": "Centre, Vector Square, 1 Long St, Mandini, 4490",
   "Longitude": "-29.15417226",
   "Latitude": 31.41061558
 },
 {
   "StoreName": "Manzini Superspar",
   "StoreType": "Spar",
   "Address": "H100, Ngwane St, Manzini, Eswatini",
   "Longitude": "-26.49213483",
   "Latitude": 31.38606025
 },
 {
   "StoreName": "Mapumalo Spar",
   "StoreType": "Spar",
   "Address": "Old Main Road, Kwa - Maphumulo, Stanger, 4470",
   "Longitude": "-29.157646",
   "Latitude": 31.0646404
 },
 {
   "StoreName": "Mapumulo Tops",
   "StoreType": "Spar",
   "Address": "74 Main Rd, Umphumulo, 4470",
   "Longitude": "-29.15683431",
   "Latitude": 31.06687567
 },
 {
   "StoreName": "Matubatuba Tops",
   "StoreType": "Spar",
   "Address": "Cnr P237 & Nyathi Rd Shop 2 & 3 Mtubatuba Mall, Mtubatuba, 3935",
   "Longitude": "-28.41584116",
   "Latitude": 32.18051433
 },
 {
   "StoreName": "Mbazwana Superspar",
   "StoreType": "Spar",
   "Address": "R22 Ithala Centre, Shop 6, Main Road, Mbazwana, 4000",
   "Longitude": "-27.4813144",
   "Latitude": 32.5801113
 },
 {
   "StoreName": "Mbazwana Tops",
   "StoreType": "Spar",
   "Address": "Shop 6, Ithala Shopping Centre, R22, Mbazwana, 4000",
   "Longitude": "-27.49279234",
   "Latitude": 32.58794327
 },
 {
   "StoreName": "Mdantsane Superspar",
   "StoreType": "Spar",
   "Address": "6 Mdantsane R47 St Zone 12, Unit, East London, 5256",
   "Longitude": "-32.9268499",
   "Latitude": 27.7031924
 },
 {
   "StoreName": "Mdoni Road Tops",
   "StoreType": "Spar",
   "Address": "Cnr Nyathi &, John Ross Hwy, Mtubatuba, 3935",
   "Longitude": "-28.41386908",
   "Latitude": 32.18485244
 },
 {
   "StoreName": "Melmoth Superspar",
   "StoreType": "Spar",
   "Address": "Melmoth, 3835",
   "Longitude": "-28.592728",
   "Latitude": 31.3979785
 },
 {
   "StoreName": "Melmoth Tops",
   "StoreType": "Spar",
   "Address": "306 Jacob Cohn St, Melmoth, 3835",
   "Longitude": "-28.59189624",
   "Latitude": 31.40001179
 },
 {
   "StoreName": "Mkuze Superspar",
   "StoreType": "Spar",
   "Address": "Old Main Road, Mkuze, 3965",
   "Longitude": "-27.617436",
   "Latitude": 32.0319308
 },
 {
   "StoreName": "Mndeni Meats Central",
   "StoreType": "BMS",
   "Address": "287 Church St, Pietermaritzburg, 3200",
   "Longitude": "-29.49631156",
   "Latitude": 30.37872757
 },
 {
   "StoreName": "Mndeni Meats Tongaat",
   "StoreType": "BMS",
   "Address": "3A Laura St, Gandhinagar, Tongaat, 4400",
   "Longitude": "-29.5698005",
   "Latitude": 31.11501963
 },
 {
   "StoreName": "Mndeni Meats Verulam",
   "StoreType": "BMS",
   "Address": "George Sewpersadh St, Verulam, Durban, 4340",
   "Longitude": "-29.64078523",
   "Latitude": 31.04586591
 },
 {
   "StoreName": "Mndeni Meats Port Shepstone",
   "StoreType": "BMS",
   "Address": "49 Bazley St, Port Shepstone, 4240",
   "Longitude": "-30.73783155",
   "Latitude": 30.44783404
 },
 {
   "StoreName": "Mooiplaas Savemor",
   "StoreType": "Spar",
   "Address": "1 Main Rd, Gonubie, East London, 5256",
   "Longitude": "-32.94003643",
   "Latitude": 28.02349833
 },
 {
   "StoreName": "Moratiwe Superspar",
   "StoreType": "Spar",
   "Address": "R579 Shop 11, Moratiwa Crossing, Mmotwaneng, 1057",
   "Longitude": "-25.00746963",
   "Latitude": 29.74574534
 },
 {
   "StoreName": "Moratiwe Tops",
   "StoreType": "Spar",
   "Address": "",
   "Longitude": "",
   "Latitude": null
 },
 {
   "StoreName": "Mtubatuba Superspar",
   "StoreType": "Spar",
   "Address": "Lot 23, John Ross Highway, Mtubatuba, 3935",
   "Longitude": "-28.4139716",
   "Latitude": 32.182748
 },
 {
   "StoreName": "Myezo Superspar",
   "StoreType": "Spar",
   "Address": "Nelson Mandela Dr, Norwood, Mthatha, 5256",
   "Longitude": "-31.5926384",
   "Latitude": 28.7880207
 },
 {
   "StoreName": "Myezo Tops",
   "StoreType": "Spar",
   "Address": "1 Nelson Mandela Dr, Myezo Park, Mthatha, 5100",
   "Longitude": "-31.59489191",
   "Latitude": 28.74904405
 },
 {
   "StoreName": "Naas Superspar",
   "StoreType": "Spar",
   "Address": "R571 Kamaqhekeza Centre, Kamaqhekeza-A, Kamaqhekeza, 1379",
   "Longitude": "-25.66796277",
   "Latitude": 31.85673176
 },
 {
   "StoreName": "Naas Tops",
   "StoreType": "Spar",
   "Address": "R571 Kamaqhekeza Plaza, Kamaqhekeza-A, Kamaqhekeza, 1200",
   "Longitude": "-25.66805082",
   "Latitude": 31.85645084
 },
 {
   "StoreName": "Nahoon SuperSpar",
   "StoreType": "Spar",
   "Address": "Cnr 49 Beach &, Drake Rd, Bonnie Doon, East London, 5241",
   "Longitude": "-32.98477874",
   "Latitude": 27.92793905
 },
 {
   "StoreName": "Ndu Spar",
   "StoreType": "Spar",
   "Address": "157 High St, Ngcobo, 5050",
   "Longitude": "-31.6759033",
   "Latitude": 28.0004453
 },
 {
   "StoreName": "Ndumu Spar",
   "StoreType": "Spar",
   "Address": "Sub 3 of Farm, D1851 Rd, Ndumu, 4000",
   "Longitude": "-26.926166",
   "Latitude": 32.2496212
 },
 {
   "StoreName": "Nemato Spar",
   "StoreType": "Spar",
   "Address": "32 Biscay Rd, Port Alfred, 6170",
   "Longitude": "-33.5924593",
   "Latitude": 26.880743
 },
 {
   "StoreName": "Nemato Tops",
   "StoreType": "Spar",
   "Address": "32-36 Biscay Rd, Port Alfred, 6170",
   "Longitude": "-33.59166688",
   "Latitude": 26.882857
 },
 {
   "StoreName": "Newcastle Corner Superspar",
   "StoreType": "Spar",
   "Address": "Memel Road, Allen St, Newcastle, 2956",
   "Longitude": "-27.745262",
   "Latitude": 29.9301394
 },
 {
   "StoreName": "Newcastle Corner Tops",
   "StoreType": "Spar",
   "Address": "Allen St, Hutten Heights, Newcastle, 2956",
   "Longitude": "-27.74399419",
   "Latitude": 29.93219191
 },
 {
   "StoreName": "Newtown Spar",
   "StoreType": "Spar",
   "Address": "81 Rahima Moosa St, Newtown, Johannesburg, 2113",
   "Longitude": "-26.2023379",
   "Latitude": 28.0328902
 },
 {
   "StoreName": "Newtown Tops",
   "StoreType": "Spar",
   "Address": "81 Rahima Moosa St, Newtown, Johannesburg, 2113",
   "Longitude": "-26.2023379",
   "Latitude": 28.0328902
 },
 {
   "StoreName": "Ngqamakhwe Spar",
   "StoreType": "Spar",
   "Address": "20 Main Street, Nqamakwe, 4990",
   "Longitude": "-32.20085359",
   "Latitude": 27.93732289
 },
 {
   "StoreName": "Ngqamakhwe Tops",
   "StoreType": "Spar",
   "Address": "20 Main Street, Nqamakwe, 4990",
   "Longitude": "-32.20074465",
   "Latitude": 27.93715123
 },
 {
   "StoreName": "Ngqeleni Superspar",
   "StoreType": "Spar",
   "Address": "King George Rd ERF 43, Main Road, Ngqeleni, 5256",
   "Longitude": "-31.6715791",
   "Latitude": 29.0260678
 },
 {
   "StoreName": "Nongoma Superspar",
   "StoreType": "Spar",
   "Address": "King Dinizulu Hwy Shop GF01A, Isizwe shopping, Lot 120, Nongoma, 3950",
   "Longitude": "-27.9118145",
   "Latitude": 31.6452733
 },
 {
   "StoreName": "Nongoma Tops",
   "StoreType": "Spar",
   "Address": "Isizwe Shopping Centre, King Dinizulu Hwy Shop GF01A, Nongoma, 3950",
   "Longitude": "-27.9118145",
   "Latitude": 31.6452733
 },
 {
   "StoreName": "Nongoma Spar",
   "StoreType": "Spar",
   "Address": "King Dinizulu Hwy Shop GF01A, Isizwe shopping, Lot 120, Nongoma, 3950",
   "Longitude": "-27.91089326",
   "Latitude": 31.64742027
 },
 {
   "StoreName": "Northcrest Superspar",
   "StoreType": "Spar",
   "Address": "16 Durban Road Main Road, Umtata Central, Mthatha, 5256",
   "Longitude": "-31.5665446",
   "Latitude": 28.7941876
 },
 {
   "StoreName": "Northcrest Tops",
   "StoreType": "Spar",
   "Address": "16 Durban Rd, Hillcrest, Mthatha, 5119",
   "Longitude": "-31.56641568",
   "Latitude": 28.79657184
 },
 {
   "StoreName": "Nqutu Superspar",
   "StoreType": "Spar",
   "Address": "Nqutu, 3135",
   "Longitude": "-28.2106266",
   "Latitude": 30.6749372
 },
 {
   "StoreName": "Nquthu Tops",
   "StoreType": "Spar",
   "Address": "P 36-2, Nqutu, 3135",
   "Longitude": "-28.20969516",
   "Latitude": 30.67717799
 },
 {
   "StoreName": "Nyakaza Savemor",
   "StoreType": "Spar",
   "Address": "R22, Hluhluwe, 3960",
   "Longitude": "-28.02267033",
   "Latitude": 32.27924201
 },
 {
   "StoreName": "Nyakaza Tops",
   "StoreType": "Spar",
   "Address": "R22, Hluhluwe, 3960",
   "Longitude": "-28.02267033",
   "Latitude": 32.27924201
 },
 {
   "StoreName": "Oak Cottage Spar",
   "StoreType": "Spar",
   "Address": "35 African St, Grahamstown, Makhanda, 6140",
   "Longitude": "-33.307362",
   "Latitude": 26.5207515
 },
 {
   "StoreName": "Oak Cottage Tops",
   "StoreType": "Spar",
   "Address": "35 African St, Grahamstown, Makhanda, 6139",
   "Longitude": "-33.30644988",
   "Latitude": 26.52301768
 },
 {
   "StoreName": "Peddie Spar",
   "StoreType": "Spar",
   "Address": "8 Albert Street, Peddie, 6005",
   "Longitude": "-33.1968994",
   "Latitude": 27.1148437
 },
 {
   "StoreName": "Peddie Tops",
   "StoreType": "Spar",
   "Address": "8 Albert St, Peddie, 5640",
   "Longitude": "-33.19679907",
   "Latitude": 27.11689218
 },
 {
   "StoreName": "Philani Valley Superspar",
   "StoreType": "Spar",
   "Address": "179 Echwabeni Avenue Umlazi, Philani Valley Y-Section, Durban, 3207",
   "Longitude": "-30.0040744",
   "Latitude": 30.874918
 },
 {
   "StoreName": "Philani Valley Tops",
   "StoreType": "Spar",
   "Address": "Philani Valley Mega, 179 Echwebeni Ave, Umlazi Y, Umlazi, 4066",
   "Longitude": "-30.00321979",
   "Latitude": 30.87725607
 },
 {
   "StoreName": "Pinetown Superspar",
   "StoreType": "Spar",
   "Address": "24 Josiah Gumede Road Shop 1 Mega Shopping Centre, New Germany, Pinetown, 3610",
   "Longitude": "-29.8141906",
   "Latitude": 30.8547326
 },
 {
   "StoreName": "PineTown Tops",
   "StoreType": "Spar",
   "Address": "24 Josiah Gumede Rd Shop 2, Mega Shopping Centre, New Germany, Pinetown, 3620",
   "Longitude": "-29.81420876",
   "Latitude": 30.85690147
 },
 {
   "StoreName": "Plaza Superspar",
   "StoreType": "Spar",
   "Address": "Shop 9, Nelspruit Plaza Cnr Henshall &, Bester St, Nelspruit 312-Jt, Mbombela, 1201",
   "Longitude": "-25.4671071",
   "Latitude": 30.97880508
 },
 {
   "StoreName": "Pongola Spar",
   "StoreType": "Spar",
   "Address": "41 Naude St, Pongola, 3170",
   "Longitude": "-27.3782115",
   "Latitude": 31.6107199
 },
 {
   "StoreName": "Pongola Tops",
   "StoreType": "Spar",
   "Address": "41 Naude St, Pongola, 3170",
   "Longitude": "-27.3775157",
   "Latitude": 31.6127871
 },
 {
   "StoreName": "Protea Spar",
   "StoreType": "Spar",
   "Address": "15 Ebden St, Balmoral, Queenstown, 5320",
   "Longitude": "-31.8962532",
   "Latitude": 26.8727039
 },
 {
   "StoreName": "Renckens Superspar",
   "StoreType": "Spar",
   "Address": "Amajuba St 15 Old Mutual Centre, Renckens, Mandini, 4490",
   "Longitude": "-29.1430965",
   "Latitude": 31.4020113
 },
 {
   "StoreName": "Renckens Tops",
   "StoreType": "Spar",
   "Address": "Amajuba St 15 Old Mutual Centre, Renckens, Mandini, 4490",
   "Longitude": "-29.1430965",
   "Latitude": 31.4020113
 },
 {
   "StoreName": "Richmond Superspar",
   "StoreType": "Spar",
   "Address": "Cnr. Nelson &, Chilley St, Richmond - KZN, 3720",
   "Longitude": "-29.8678083",
   "Latitude": 30.2708332
 },
 {
   "StoreName": "Richmond Tops",
   "StoreType": "Spar",
   "Address": "29 Chilley St, Richmond - KZN, 3780",
   "Longitude": "-29.86695117",
   "Latitude": 30.27308523
 },
 {
   "StoreName": "Rink Street Spar",
   "StoreType": "Spar",
   "Address": "21C Rink St, Central, Gqeberha, 6001",
   "Longitude": "-33.96196992",
   "Latitude": 25.60934746
 },
 {
   "StoreName": "Riverbend Spar",
   "StoreType": "Spar",
   "Address": "1 Loerie Ln, Beaconhurst, East London, 5241",
   "Longitude": "-32.969545",
   "Latitude": 27.9330228
 },
 {
   "StoreName": "Riverbend Tops",
   "StoreType": "Spar",
   "Address": "Lourie Heights Mall, Gonubie West, Gonubie, 5288",
   "Longitude": "-32.93346933",
   "Latitude": 27.99147461
 },
 {
   "StoreName": "Savoy Superspar",
   "StoreType": "Spar",
   "Address": "129 Nelson Mandela Dr, Fort Gale, Mthatha, 5256",
   "Longitude": "-31.5940502",
   "Latitude": 28.7647292
 },
 {
   "StoreName": "Savoy Tops",
   "StoreType": "Spar",
   "Address": "129 Nelson Mandela Dr, Fort Gale, Mthatha, 5100",
   "Longitude": "-31.59388789",
   "Latitude": 28.76675172
 },
 {
   "StoreName": "Seven Oaks Superspar",
   "StoreType": "Spar",
   "Address": "Cnr. York & Elliot St, Mthatha, 5100",
   "Longitude": "-31.586409",
   "Latitude": 28.6493283
 },
 {
   "StoreName": "Stanford Square Superspar",
   "StoreType": "Spar",
   "Address": "45 Cottrell St, Korsten, Gqeberha, 6020",
   "Longitude": "-33.9336402",
   "Latitude": 25.5813816
 },
 {
   "StoreName": "Stanford Square Tops",
   "StoreType": "Spar",
   "Address": "Cottrell St, Neave Industrial, Gqeberha, 6020",
   "Longitude": "-33.93227251",
   "Latitude": 25.58402608
 },
 {
   "StoreName": "Supatrade Ingwavuma Spar",
   "StoreType": "Spar",
   "Address": "Ingwavuma Rd Main Road 17, Ingwavuma, 4000",
   "Longitude": "-27.1343515",
   "Latitude": 31.9986721
 },
 {
   "StoreName": "Sutherland Ridge Superspar",
   "StoreType": "Spar",
   "Address": "1276 Willem Botha Dr, Wierdapark, Pretoria, 0140",
   "Longitude": "-25.8466324",
   "Latitude": 28.1411416
 },
 {
   "StoreName": "Sutherland Ridge Tops",
   "StoreType": "Spar",
   "Address": "0157, 1280 Willem Botha Dr, Wierdapark, Centurion, 0157",
   "Longitude": "-25.8460108",
   "Latitude": 28.14365469
 },
 {
   "StoreName": "Taxi City Superspar",
   "StoreType": "Spar",
   "Address": "Cnr Kirkland &, Allen St, Newcastle CBD, Newcastle, 2940",
   "Longitude": "-27.72042222",
   "Latitude": 29.936559
 },
 {
   "StoreName": "Tintswalo Spar",
   "StoreType": "Spar",
   "Address": "Van Klaserie St, Acornhoek-A, Acornhoek, 1360",
   "Longitude": "-24.59537081",
   "Latitude": 31.06567867
 },
 {
   "StoreName": "Tintswalo Tops",
   "StoreType": "Spar",
   "Address": "Main St, Acornhoek, 1360",
   "Longitude": "-24.5950378",
   "Latitude": 31.06553093
 },
 {
   "StoreName": "Tsolo Spar",
   "StoreType": "Spar",
   "Address": "Tsolo, 5170",
   "Longitude": "-31.3106963",
   "Latitude": 28.7566396
 },
 {
   "StoreName": "Tubatse Superspar",
   "StoreType": "Spar",
   "Address": "Dirk Winterbach St Shop 12, Twin City Shopping Centre, Burgersfort, 1150",
   "Longitude": "-24.66609596",
   "Latitude": 30.32571503
 },
 {
   "StoreName": "Ugie Spar",
   "StoreType": "Spar",
   "Address": "Main Street 14, Elliot, 5480",
   "Longitude": "-31.1967545",
   "Latitude": 28.2303366
 },
 {
   "StoreName": "Ulundi Superspar",
   "StoreType": "Spar",
   "Address": "Ulundi BA, Ulundi",
   "Longitude": "-28.302069",
   "Latitude": 31.4205914
 },
 {
   "StoreName": "Ulundi Tops",
   "StoreType": "Spar",
   "Address": "Princess Magogo St Shop 12, Senzagakhona Centre, Ulundi BA, Ulundi, 3838",
   "Longitude": "-28.30159323",
   "Latitude": 31.42178454
 },
 {
   "StoreName": "Umfolozi Savemor",
   "StoreType": "Spar",
   "Address": "",
   "Longitude": "",
   "Latitude": null
 },
 {
   "StoreName": "Umlazi Superspar",
   "StoreType": "Spar",
   "Address": "Umlazi Mega City, Shop M8, 50 Griffiths Mxenge Hwy, Umlazi, 3207",
   "Longitude": "-29.9540842",
   "Latitude": 30.937716
 },
 {
   "StoreName": "Umlazi Tops",
   "StoreType": "Spar",
   "Address": "50 Griffiths Mxenge Hwy Umlazi Mega City Shopping Centre, Umlazi V, Durban, 4089",
   "Longitude": "-29.94844072",
   "Latitude": 30.93916618
 },
 {
   "StoreName": "Umzimkulu Superspar",
   "StoreType": "Spar",
   "Address": "Shop 15 De Bruyn Plaza, R56, Umzimkulu, 3297",
   "Longitude": "-30.2612542",
   "Latitude": 29.9360543
 },
 {
   "StoreName": "Umzimkhulu Tops",
   "StoreType": "Spar",
   "Address": "R56 Shop 14, De Bruyn Plaza, Umzimkulu, 3297",
   "Longitude": "-30.26070962",
   "Latitude": 29.93810367
 },
 {
   "StoreName": "Vangate Spar",
   "StoreType": "Spar",
   "Address": "Shop 10, Vanguard Mall, Jakes Gerwel Dr, Athlone, Cape Town, 7792",
   "Longitude": "-33.9601029",
   "Latitude": 18.5366541
 },
 {
   "StoreName": "Vryheid Spar",
   "StoreType": "Spar",
   "Address": "President Street Vryheid, Corner of Utrecht and East Street, Vryheid, 3100",
   "Longitude": "-27.7687259",
   "Latitude": 30.7878122
 },
 {
   "StoreName": "Winterton Superspar",
   "StoreType": "Spar",
   "Address": "Cnr Union St &, Springfield Rd, Winterton, 3340",
   "Longitude": "-28.81224103",
   "Latitude": 29.53652128
 },
 {
   "StoreName": "Winterton Tops",
   "StoreType": "Spar",
   "Address": "Union St, Winterton, 3340",
   "Longitude": "-28.81219553",
   "Latitude": 29.53644885
 }
]