[{
        "Name": "1000 Hills Spar",
        "Address": "86 Old Main Road",
        "Longitude": -29.752731,
        "Latitude": 30.742401
    },
    {
        "Name": "Abaqulusi Superspar",
        "Address": "CNR Of Mark & President Street",
        "Longitude": -28.230238,
        "Latitude": 28.30469
    },
    {
        "Name": "Aliwal North Spar",
        "Address": "C/O Grey & Olivier Street",
        "Longitude": -31.889152,
        "Latitude": 26.868965
    },
    {
        "Name": "Aljos Superspar",
        "Address": "Plot 65, Kruger Avenue",
        "Longitude": -25.839644,
        "Latitude": 28.215114
    },
    {
        "Name": "Amahlati Spar",
        "Address": "22 Hill Street",
        "Longitude": -33.923429,
        "Latitude": 18.667393
    },
    {
        "Name": "Andrews Spar",
        "Address": "8 Frankbull Road Old Main",
        "Longitude": -26.377944,
        "Latitude": 28.134827
    },
    {
        "Name": "Ashmel Superspar",
        "Address": "18 Ashmel Centre",
        "Longitude": -33.920612,
        "Latitude": 18.429607
    },
    {
        "Name": "Austerville Spar",
        "Address": "5 Alabama Road, Austerville",
        "Longitude": -34.02857,
        "Latitude": 18.592574
    },
    {
        "Name": "Ballito Spar",
        "Address": "22 Sandra Road",
        "Longitude": -29.540914,
        "Latitude": 31.215256
    },
    {
        "Name": "Benoni TOPS at Superspar",
        "Address": "C/O Tom Jones Street & Ampthill Avenue",
        "Longitude": -26.190885,
        "Latitude": 28.32058
    },
    {
        "Name": "Bergville Spar",
        "Address": "Cnr South/West St.",
        "Longitude": -28.73201533,
        "Latitude": 29.35318938
    },
    {
        "Name": "Bluff spar",
        "Address": "884 Bluff Road, South Africa",
        "Longitude": -29.911184,
        "Latitude": 31.013169
    },
    {
        "Name": "BMS Hillcrest",
        "Address": "9 Inanda Road",
        "Longitude": -29.778184,
        "Latitude": 30.765932
    },
    {
        "Name": "Bridge City Superspar",
        "Address": "Bridge City Shopping Centre, 14 Street 121666, Kwa Mashu",
        "Longitude": -33.827507,
        "Latitude": 25.392169
    },
    {
        "Name": "Brighton Superspar",
        "Address": "Ferguson Rd, Deal Party, Gqeberha, 6070",
        "Longitude": -33.907286,
        "Latitude": 25.5980392
    },
    {
        "Name": "Butterworth Kwikspar",
        "Address": "21 Umtata St, Butterworth, 4960",
        "Longitude": -32.30984,
        "Latitude": 28.13652914
    },
    {
        "Name": "Butterworth Superspar",
        "Address": "Cnr Fuller & Carnage Streets, Butterworth, 4960",
        "Longitude": -32.32718879,
        "Latitude": 28.14004308
    },
    {
        "Name": "Cala Spar",
        "Address": "Tsomo Road",
        "Longitude": -32.03678,
        "Latitude": 27.81994
    },
    {
        "Name": "Cambridge Spar",
        "Address": "18 Garcia Street",
        "Longitude": -32.977286,
        "Latitude": 27.874469
    },
    {
        "Name": "Camperdown Superspar",
        "Address": "8 Shepstone St, Camperdown, 3720",
        "Longitude": -29.7272,
        "Latitude": 30.54048246
    },
    {
        "Name": "Centane Spar",
        "Address": "Cnr Bell Avenue & Blyth Street",
        "Longitude": -32.50680374,
        "Latitude": 28.318584
    },
    {
        "Name": "Chatsworth Superspar",
        "Address": "Centre, 17 Joyhurst St, Westcliff, Chatsworth, 4092",
        "Longitude": -29.91296229,
        "Latitude": 30.88115344
    },
    {
        "Name": "Circle Spar",
        "Address": "Cnr. York & Elliot St, Mthatha, 5100",
        "Longitude": -31.58622948,
        "Latitude": 28.7894021
    },
    {
        "Name": "CKG Kwikspar",
        "Address": "35 African Street",
        "Longitude": -33.973605,
        "Latitude": 25.599036
    },
    {
        "Name": "Cofimvaba Superspar",
        "Address": "Cnr Main Street & Bellaire Avenue, Cofimvaba, South Africa",
        "Longitude": -28.5591,
        "Latitude": 29.78475
    },
    {
        "Name": "Crossways Spar",
        "Address": "No. 1 Schafli Road",
        "Longitude": -33.512267,
        "Latitude": 18.474313
    },
    {
        "Name": "Daku Spar",
        "Address": "96 Daku Building, Daku Square,",
        "Longitude": -34.09576,
        "Latitude": 18.847115
    },
    {
        "Name": "De Francas Spar",
        "Address": "82 Francis Rd, Ladysmith, 3370",
        "Longitude": -33.890923,
        "Latitude": 25.588063
    },
    {
        "Name": "Debi-Lee Spar",
        "Address": "121 Jan Smuts Avenue",
        "Longitude": -26.684867,
        "Latitude": 25.458186
    },
    {
        "Name": "Duzi Spar",
        "Address": "Laager Centre ,Longmarket Street",
        "Longitude": -25.456188,
        "Latitude": 31.66833
    },
    {
        "Name": "Edendale Superspar",
        "Address": "Shop 5,Kwamabulala Shopping Centre",
        "Longitude": -25.767481,
        "Latitude": 28.028921
    },
    {
        "Name": "Eerste Rivier Superspar",
        "Address": "Cnr van Riebeeck & Forest Dr",
        "Longitude": -34.00083479,
        "Latitude": 28.2884
    },
    {
        "Name": "Elliotdale Spar",
        "Address": "84 Main Street",
        "Longitude": -33.695498,
        "Latitude": 28.028921
    },
    {
        "Name": "Empangeni Power Superspar",
        "Address": "66 Maxwell St, Empangeni Central, Empangeni, 3880",
        "Longitude": -28.7442062,
        "Latitude": 31.88824138
    },
    {
        "Name": "Engcobo Spar",
        "Address": "141 High Street",
        "Longitude": -31.6770139,
        "Latitude": 28.028921
    },
    {
        "Name": "Ephondweni Supatrade Superspar",
        "Address": "Main Road",
        "Longitude": -33.724212,
        "Latitude": 30.1347
    },
    {
        "Name": "Escombe Kwikspar",
        "Address": "388 Main Rd, Escombe, Queensburgh, 4093",
        "Longitude": -34.142979,
        "Latitude": 18.963341
    },
    {
        "Name": "Esikhawini Superspar",
        "Address": "1 Mdlebe Mtshona West J Section Esikhawini",
        "Longitude": -29.831868,
        "Latitude": 30.897899
    },
    {
        "Name": "Estcourt Spar",
        "Address": "3 Hellet Rd, Estcourt, 3310",
        "Longitude": -29.0127146,
        "Latitude": 29.87391209
    },
    {
        "Name": "Fontana Stoneridge Spar",
        "Address": "Stoneridge Shopping Centre, EDENVALE",
        "Longitude": -26.114179,
        "Latitude": 28.14379458
    },
    {
        "Name": "Gateway Dc Superspar",
        "Address": "LGI Gateway Shopping Centre,Umhlanga Ridge",
        "Longitude": -33.836123,
        "Latitude": 28.321407
    },
    {
        "Name": "Georgious Spar",
        "Address": "50 Campbell Street",
        "Longitude": -26.144884,
        "Latitude": 30.890996
    },
    {
        "Name": "Ghandi Spar and Tops",
        "Address": "Cnr Eloff & Marshall Street, JOHANNESBURG",
        "Longitude": -33.575558,
        "Latitude": 18.495529
    },
    {
        "Name": "Glenwood Spar",
        "Address": "The Village Cnr 397 Moore & Hunt Road , Glenwood",
        "Longitude": -29.64359,
        "Latitude": 28.028921
    },
    {
        "Name": "Gonubie Spar",
        "Address": "85-87 Main Rd, 6 Mayhem Place, Gonubie, East London, 5256",
        "Longitude": -32.939912,
        "Latitude": 28.02339052
    },
    {
        "Name": "Gugulethu Spar",
        "Address": "GUGULETHU SQUARE Cnr NY1 & Gugulethu Roads",
        "Longitude": -33.986226,
        "Latitude": 18.356566
    },
    {
        "Name": "Hammarsdale Mega Superspar",
        "Address": "Hammarsdale Junction",
        "Longitude": -28.230238,
        "Latitude": 29.391632
    },
    {
        "Name": "Harding Spar",
        "Address": "11 Hawkins Street",
        "Longitude": -33.908838,
        "Latitude": 28.028921
    },
    {
        "Name": "Harrismith Spar",
        "Address": "42 Hamilton Street",
        "Longitude": -33.760488,
        "Latitude": 18.56647
    },
    {
        "Name": "Hibberdene",
        "Address": "Shop 7 Hibberdene Village Mall",
        "Longitude": -30.154237,
        "Latitude": 18.63519
    },
    {
        "Name": "Highway Spar",
        "Address": "Shop 22, Kuyasa Complex, Sandile Road",
        "Longitude": -33.828658,
        "Latitude": 30.574709
    },
    {
        "Name": "Hlabisa Supatrade Superspar",
        "Address": "R618, Hlabisa, 3937",
        "Longitude": -28.145508,
        "Latitude": 31.87528781
    },
    {
        "Name": "Hluhluwe Superspar",
        "Address": "Lot 15 , Main Street, Hluhluwe",
        "Longitude": -29.872847,
        "Latitude": 18.650421
    },
    {
        "Name": "Holdens Spar",
        "Address": "279 Florida Road",
        "Longitude": -26.176941,
        "Latitude": 30.290472
    },
    {
        "Name": "Idutywa Spar",
        "Address": "147 Richardson Road",
        "Longitude": -32.09957234,
        "Latitude": 28.3045424
    },
    {
        "Name": "Indwe Spar",
        "Address": "37 Fletcher Street",
        "Longitude": -31.46856906,
        "Latitude": 27.33906872
    },
    {
        "Name": "Ingonyama Superspar",
        "Address": "King Dinizulu Hwy Shop GF01A, Isizwe shopping, Lot 120, Nongoma, 3950",
        "Longitude": -27.911481,
        "Latitude": 31.64735594
    },
    {
        "Name": "Ingwavuma Supatrade Superspar",
        "Address": "D1837 Rd Lot 17, Ingwavuma, 3968",
        "Longitude": -27.132948,
        "Latitude": 32.00381173
    },
    {
        "Name": "Integripure",
        "Address": "38 Victoria Rd, Pioneer Park, Newcastle, 2940",
        "Longitude": -27.733146,
        "Latitude": 31.13015157
    },
    {
        "Name": "Ixopo Superspar",
        "Address": "36 Margaret St, Ixopo, 3276",
        "Longitude": -30.15375487,
        "Latitude": 30.05926803
    },
    {
        "Name": "Jeppe Spar",
        "Address": "157 Jeppe Street, JOHANNESBURG",
        "Longitude": -28.916308,
        "Latitude": 18.466191
    },
    {
        "Name": "Jimmys Superspar",
        "Address": "78 Sutherland St, Norwood, Mthatha, 5100",
        "Longitude": -31.58803014,
        "Latitude": 28.78745871
    },
    {
        "Name": "Jozini Supatrade Superspar",
        "Address": "1 Nsinde Street Main Jozini Road, Ithala Centre",
        "Longitude": -33.7242,
        "Latitude": 18.96334
    },
    {
        "Name": "Khayelitsha Spar",
        "Address": "1 Shopping Centre Julius Tsolo Road, Khayelitsha",
        "Longitude": -29.597971,
        "Latitude": 28.30469
    },
    {
        "Name": "Kings Superspar",
        "Address": "31 Union Lane Pinetown",
        "Longitude": -33.723109,
        "Latitude": 30.369795
    },
    {
        "Name": "Kokstad Spar",
        "Address": "45 Hope St, Kokstad, 4700",
        "Longitude": -30.552859,
        "Latitude": 29.42561953
    },
    {
        "Name": "Kosi Bay Supatrade Superspar",
        "Address": "Makprop Centre Main Rd, Kwangwanase",
        "Longitude": -26.222818,
        "Latitude": 32.60390179
    },
    {
        "Name": "Kwamashu Superspar",
        "Address": "300 Malandela Road, Kwa Mashu",
        "Longitude": -29.812271,
        "Latitude": 26.800938
    },
    {
        "Name": "Kwantu Spar",
        "Address": "Cnr Bridge & High Streets, ALICE",
        "Longitude": -26.144884,
        "Latitude": 28.003184
    },
    {
        "Name": "Lady Frere Spar",
        "Address": "23 Indwe St, Lady Frere, 5410",
        "Longitude": -31.701725,
        "Latitude": 27.230004
    },
    {
        "Name": "Ladysmith Superspar",
        "Address": "Corner Of Lyell And Queen Street",
        "Longitude": -29.921748,
        "Latitude": 28.19802696
    },
    {
        "Name": "Libode Spargs",
        "Address": "ERF 57 Nomandela Drive , Libode",
        "Longitude": -26.207457,
        "Latitude": 28.23895
    },
    {
        "Name": "Lifestyle Superspar",
        "Address": "Shop 25, Cnr DouglasCrow Drive And M4 Ballito",
        "Longitude": -30.723396,
        "Latitude": 28.028921
    },
    {
        "Name": "Lighthouse Spar",
        "Address": "Corner Moores Street & Court Crescent",
        "Longitude": -33.998969,
        "Latitude": 26.83912744
    },
    {
        "Name": "Lusikisiki Queen Rose Spar",
        "Address": "28 Main Street,Lusikisiki",
        "Longitude": -33.07969,
        "Latitude": 25.529281
    },
    {
        "Name": "Maclear Queen Rose Spar",
        "Address": "8 Van Riebeeck Street",
        "Longitude": -26.087554,
        "Latitude": 25.397088
    },
    {
        "Name": "Madadeni Superspar",
        "Address": "Corner Of Mad 1 And Mad 3 Street",
        "Longitude": -29.768934,
        "Latitude": 28.30469
    },
    {
        "Name": "Madeira Spargs",
        "Address": "22 Nelson Mandela Drive, Umtata",
        "Longitude": -33.667413,
        "Latitude": 18.040774
    },
    {
        "Name": "Maluti(Setsing) Superspar",
        "Address": "Mampoi Rd &, Motebang Rd, Phuthaditjhaba-A, Phuthaditjhaba, 9869",
        "Longitude": -28.535303,
        "Latitude": 28.80174264
    },
    {
        "Name": "Mandini Superspar",
        "Address": "15 Old Mutual Centre",
        "Longitude": -26.144884,
        "Latitude": 31.221086
    },
    {
        "Name": "Mapumulo Superspar",
        "Address": "74 Main Road Mapumulo",
        "Longitude": -33.16723,
        "Latitude": 28.092268
    },
    {
        "Name": "Matatiele Spar",
        "Address": "80 Long Street , Matatiele",
        "Longitude": -34.007286,
        "Latitude": 28.028921
    },
    {
        "Name": "Mbazwana Supertrade Superspar",
        "Address": "6 Ithala Shopping Ctr Roland Puckering",
        "Longitude": -27.48097635,
        "Latitude": 32.5821712
    },
    {
        "Name": "Mdantsane Superspar",
        "Address": "Zone 12, Unit 6,",
        "Longitude": -28.51865614,
        "Latitude": 30.880762
    },
    {
        "Name": "Mega City Umlazi Superspar",
        "Address": "Shop Mangosuthu Highway",
        "Longitude": -34.001814,
        "Latitude": 18.619757
    },
    {
        "Name": "Mega Pinetown Superspar",
        "Address": "24 Josaih Gumede Road",
        "Longitude": -26.237092,
        "Latitude": 28.80306229
    },
    {
        "Name": "Melmoth Superspar",
        "Address": "LOT 36 Jacob Cohn Street",
        "Longitude": -30.343261,
        "Latitude": 18.522571
    },
    {
        "Name": "Middelburg Spar",
        "Address": "21 Van Reenen Street",
        "Longitude": -29.792459,
        "Latitude": 31.344379
    },
    {
        "Name": "Mills Spar",
        "Address": "72 BlackBurrow Rd,Hayfields",
        "Longitude": -29.64757452,
        "Latitude": 18.587996
    },
    {
        "Name": "Mkuze Superspar",
        "Address": "1 Main Road",
        "Longitude": -34.059064,
        "Latitude": 18.75213
    },
    {
        "Name": "Mt Ayliff Spar",
        "Address": "4 Nolangeni Street",
        "Longitude": -26.273034,
        "Latitude": 18.551023
    },
    {
        "Name": "Mt Edgecombe Kwikspar",
        "Address": "The 1 Flanders Drive",
        "Longitude": -25.699102,
        "Latitude": 25.553166
    },
    {
        "Name": "Mt Frere Spargs",
        "Address": "184 Main St, Mount Frere, 5090",
        "Longitude": -30.899297,
        "Latitude": 28.9818878
    },
    {
        "Name": "Myezo Spar",
        "Address": "SHOP 1 NE",
        "Longitude": -26.106881,
        "Latitude": 18.64021
    },
    {
        "Name": "Ndu Spar & Tops 2",
        "Address": "157 High St, Ngcobo, 5050",
        "Longitude": -31.675721,
        "Latitude": 28.00265544
    },
    {
        "Name": "Ndu Tops 1, 2 and 3",
        "Address": "Main Rd Erf 317, Engcobo, 5050",
        "Longitude": -31.676859,
        "Latitude": 27.9991647
    },
    {
        "Name": "Ndumu Supatrade Superspar",
        "Address": "Sub 3 (Of 1) Farm , Main Road",
        "Longitude": -25.767481,
        "Latitude": 28.239896
    },
    {
        "Name": "Nemato Spar",
        "Address": "32-36 Biscay Road",
        "Longitude": -25.7935,
        "Latitude": 28.234297
    },
    {
        "Name": "Newcastle Corner Superspar",
        "Address": "Corner Memel Rd, Hutten Heights, Newcastle, 2956",
        "Longitude": -27.744712,
        "Latitude": 29.93248294
    },
    {
        "Name": "Newtown Spar",
        "Address": "Cnr Bree & Ntemi Piliso Street, JOHANNESBURG",
        "Longitude": -26.124071,
        "Latitude": 28.321407
    },
    {
        "Name": "Ngqamakhwe Spar",
        "Address": "22 Main Road, NQAMAKWE",
        "Longitude": -30.798636,
        "Latitude": 18.659327
    },
    {
        "Name": "Ngqeleni Spar",
        "Address": "ERF 43, Main Road, Ngqeleni",
        "Longitude": -29.709094,
        "Latitude": 28.3
    },
    {
        "Name": "Nicks Foods Berlin  Spar",
        "Address": "21 Legion St, Berlin General, Ntabozuko, 5660",
        "Longitude": -32.883803,
        "Latitude": 29.74567757
    },
    {
        "Name": "Nicks Foods Daily  Spar",
        "Address": "Queens Road",
        "Longitude": -33.626975,
        "Latitude": 31.063796
    },
    {
        "Name": "Nicks Foods EL  Spar",
        "Address": "7 - 9 Park Gates Road",
        "Longitude": -31.594599,
        "Latitude": 28.019695
    },
    {
        "Name": "Nicks Foods Kwt  Spar",
        "Address": "Cnr Cathcart & Walker St.",
        "Longitude": -23.830582,
        "Latitude": 29.367074
    },
    {
        "Name": "Nongoma Superspar",
        "Address": "King Dinizulu Hwy Shop GF01A, Isizwe shopping, Lot 120, Nongoma, 3950",
        "Longitude": -27.911526,
        "Latitude": 31.64738255
    },
    {
        "Name": "Northcrest Superspar",
        "Address": "16 Durban Main Road, Mthatha",
        "Longitude": -33.923958,
        "Latitude": 28.028921
    },
    {
        "Name": "Northway Spar",
        "Address": "Cnr 20 Greytown Rd & Otto's Bluff Rd, Mountain Rise, Pietermaritzburg",
        "Longitude": -33.802999,
        "Latitude": 28.002625
    },
    {
        "Name": "Nquthu Superspar",
        "Address": "EFR 2470 Rank Road",
        "Longitude": -26.185712,
        "Latitude": 18.421737
    },
    {
        "Name": "Park Square",
        "Address": "R 13 Park Square,Corner Of Park Avenue Centenary Boulevard",
        "Longitude": -34.00534,
        "Latitude": 27.875094
    },
    {
        "Name": "Paulpietersburg Superspar",
        "Address": "33 High Street,Shop 1A",
        "Longitude": -33.800209,
        "Latitude": 18.463226
    },
    {
        "Name": "Philani Valley Mega Superspar",
        "Address": "118 Echwabeni Avenue, Philani Valley Y-Section",
        "Longitude": -25.495595,
        "Latitude": 18.516839
    },
    {
        "Name": "Pongola Superspar",
        "Address": "41 Naude St, Pongola, 3170",
        "Longitude": -27.37798283,
        "Latitude": 31.61296224
    },
    {
        "Name": "Protea SuperSpar",
        "Address": "15 Ebdon Street, QueensTown, South Africa",
        "Longitude": -31.05108,
        "Latitude": 31.121344
    },
    {
        "Name": "Queen Rose Spar",
        "Address": "109 Thurston Street, Tsolo",
        "Longitude": -27.776395,
        "Latitude": 31.303442
    },
    {
        "Name": "Queenstown Spargs",
        "Address": "7-9 Joubert Street, QueensTown, South Africa",
        "Longitude": -26.730839,
        "Latitude": 31.612618
    },
    {
        "Name": "Qumbu Spargs Superspar",
        "Address": "Main Road, Qumbu",
        "Longitude": -31.159823,
        "Latitude": 28.8705545
    },
    {
        "Name": "Renckens Hyper",
        "Address": "1 Old Main Road, Mandini, 4490",
        "Longitude": -29.14649767,
        "Latitude": 31.40336769
    },
    {
        "Name": "Renckens Hyper Tops",
        "Address": "1 Old Main Rd Renckens Hyper, Mandini, 4490",
        "Longitude": -29.14586048,
        "Latitude": 31.40225189
    },
    {
        "Name": "Richmond Spar",
        "Address": "Cnr. Nelson &, Chilley St, Richmond - KZN, 3720",
        "Longitude": -33.724212,
        "Latitude": 30.999044
    },
    {
        "Name": "Riverbend Kwikspar",
        "Address": "1 Loerie Crescent, Gonubie, East London, South Africa",
        "Longitude": -32.93437427,
        "Latitude": 27.99154062
    },
    {
        "Name": "Rolyats Superspar",
        "Address": "86 Main Street, Kokstad",
        "Longitude": -30.54796277,
        "Latitude": 29.42626928
    },
    {
        "Name": "Rosehill Superspar",
        "Address": "R72 Main Road",
        "Longitude": -29.86758499,
        "Latitude": 31.40330877
    },
    {
        "Name": "Savoy Superspar",
        "Address": "129 Nelson Mandela Drive",
        "Longitude": -26.12645,
        "Latitude": 29.444131
    },
    {
        "Name": "Solis Spar",
        "Address": "226 & 227 Main Road Mt Frere",
        "Longitude": -33.975165,
        "Latitude": 28.197348
    },
    {
        "Name": "Sonstraal Spar",
        "Address": "Cnr Langerberg & Verdi Boulevard, Durbanville",
        "Longitude": -26.1474,
        "Latitude": 30.388976
    },
    {
        "Name": "Spar Mtuba Power",
        "Address": "Lot 23, John Ross Highway, Mtubatuba, 3935",
        "Longitude": -28.413596,
        "Latitude": 32.18474359
    },
    {
        "Name": "Spargs Engcobo Superspar",
        "Address": "141 High St Engcobo Transkei, 6005",
        "Longitude": -31.67722337,
        "Latitude": 27.99930378
    },
    {
        "Name": "Spargs Idutywa Superspar",
        "Address": "Evelyn St, Idutywa, 5000",
        "Longitude": -32.096659,
        "Latitude": 28.30297532
    },
    {
        "Name": "Spargs Queenstown",
        "Address": "Komani St & Victoria Rd, CBD, Queenstown, 5319",
        "Longitude": -31.89990568,
        "Latitude": 26.87133295
    },
    {
        "Name": "Spargs Sprigg Superspar",
        "Address": "15 Sprigg Street, Cambridge",
        "Longitude": -26.657601,
        "Latitude": 30.380477
    },
    {
        "Name": "Stanford Square Spar",
        "Address": "Corner Stanford Road & Cottrell Street",
        "Longitude": -26.144884,
        "Latitude": 28.30469
    },
    {
        "Name": "Sunshine Coast Spar",
        "Address": "34-36 Jecana Centre",
        "Longitude": -26.348568,
        "Latitude": 18.348042
    },
    {
        "Name": "Superspar Spargs Butterworth",
        "Address": "Sauer Street, Butterworth, 4960",
        "Longitude": -32.332507,
        "Latitude": 28.14551968
    },
    {
        "Name": "Sutherland Ridge Spar",
        "Address": "29 Sutherland Street",
        "Longitude": -26.145064,
        "Latitude": 25.580188
    },
    {
        "Name": "Ugie Spar",
        "Address": "R56, Ugie, 5470",
        "Longitude": -31.19653,
        "Latitude": 28.2325452
    },
    {
        "Name": "Ulundi Supatrade Superspar",
        "Address": "King Senzakhona Centre, Princess Magogo Street, Shop No. 1",
        "Longitude": -23.708892,
        "Latitude": 27.121252
    },
    {
        "Name": "Umkomaas",
        "Address": "7 Brad Street , Umkomaas",
        "Longitude": -26.243999,
        "Latitude": 19.767282
    },
    {
        "Name": "Umzimkhulu Superspar",
        "Address": "Shop 14 De Bruyn Plaza,R56",
        "Longitude": -33.973027,
        "Latitude": 28.079383
    },
    {
        "Name": "Uvongo",
        "Address": "Shop 1 Dolphin Centre Marine Drive",
        "Longitude": -25.708824,
        "Latitude": 18.703488
    },
    {
        "Name": "Vangate Spar",
        "Address": "Shop 10 Vanguard Mall, Jakes Gerwel Drive",
        "Longitude": -26.124071,
        "Latitude": 28.042981
    },
    {
        "Name": "Vryheid Superspar",
        "Address": "Corner Of Utrecht And East Street",
        "Longitude": -32.25222,
        "Latitude": 18.60788
    },
    {
        "Name": "Willowvale Spar",
        "Address": "Erf 26 & 27 Main Road",
        "Longitude": -33.952494,
        "Latitude": 18.322934
    },
    {
        "Name": "Winterton Superspar",
        "Address": "Cnr Of Union & Springfield Street",
        "Longitude": -25.75676,
        "Latitude": 31.062949
    }
]